{
  "BV1rcdzBnEjd": [
    {
      "place_name": "Taos",
      "google_maps_url": "https://www.google.com/maps/place/Taos+Pueblo,+NM/@36.4629107,-105.641212,12z/data=!3m1!4b1!4m6!3m5!1s0x87176fa2b43ecd13:0x7e19a1aacea18d12!8m2!3d36.438638!4d-105.5444545!16zL20vMGYyMm4?entry=ttu&g_ep=EgoyMDI2MDQxNS4wIKXMDSoASAFQAw%3D%3D",
      "comment": "$25 entry fee",
      "lat": 36.4629107,
      "lng": -105.641212
    },
    {
      "place_name": "Española",
      "google_maps_url": "https://www.google.com/maps/place/Espa%C3%B1ola,+NM/@36.003464,-106.0702861,13z/data=!3m1!4b1!4m6!3m5!1s0x87183c881ff03b13:0x4407bc0826d83d69!8m2!3d35.9910383!4d-106.0818233!16zL20vMDEzaGd0?entry=ttu&g_ep=EgoyMDI2MDQxNS4wIKXMDSoASAFQAw%3D%3D",
      "comment": "",
      "lat": 36.003464,
      "lng": -106.0702861
    },
    {
      "place_name": "Tortilleria Temosachi",
      "google_maps_url": "https://www.google.com/maps/place/Tortilleria+Temosachi/@35.9901993,-106.065453,17z/data=!3m1!4b1!4m6!3m5!1s0x87183c7fdd2f7733:0x22ba510721b48246!8m2!3d35.9901993!4d-106.065453!16s%2Fg%2F11bc96g6gy?entry=ttu&g_ep=EgoyMDI2MDQxNS4wIKXMDSoASAFQAw%3D%3D",
      "comment": "小霸王用餐处，墨西哥菜，$15。",
      "lat": 35.9901993,
      "lng": -106.065453
    },
    {
      "place_name": "Santa Claran Hotel Casino",
      "google_maps_url": "https://www.google.com/maps/place/Santa+Claran+Hotel+Casino/@35.9965862,-106.0678641,17z/data=!4m9!3m8!1s0x87183c81638ccba1:0xf20b76cd34d22c03!5m2!4m1!1i2!8m2!3d35.9965862!4d-106.0678641!16s%2Fg%2F12llkrqs7?entry=ttu&g_ep=EgoyMDI2MDQxNS4wIKXMDSoASAFQAw%3D%3D",
      "comment": "赌场，可以领取免费可乐。",
      "lat": 35.9965862,
      "lng": -106.0678641
    },
    {
      "place_name": "McDonald's",
      "google_maps_url": "https://www.google.com/maps/place/McDonald's/@36.4046628,-105.573853,17z/data=!3m1!4b1!4m6!3m5!1s0x87176523014183c3:0xcf55d7d961a8b8e1!8m2!3d36.4046628!4d-105.573853!16s%2Fg%2F1tz71vwg?entry=ttu&g_ep=EgoyMDI2MDQxNS4wIKXMDSoASAFQAw%3D%3D",
      "comment": "小霸王用餐处",
      "lat": 36.4046628,
      "lng": -105.573853
    },
    {
      "place_name": "Wengert Patio",
      "google_maps_url": "https://www.google.com/maps/place/Wengert+Patio/@36.4065284,-105.57244,17z/data=!3m1!4b1!4m6!3m5!1s0x8717655f87e9b42f:0x4e88a9a9d6a45772!8m2!3d36.4065284!4d-105.57244!16s%2Fg%2F11st5xr41j?entry=ttu&g_ep=EgoyMDI2MDQxNS4wIKXMDSoASAFQAw%3D%3D",
      "comment": "昂贵画廊",
      "lat": 36.4065284,
      "lng": -105.57244
    },
    {
      "place_name": "Santa Fe",
      "google_maps_url": "https://www.google.com/maps/place/Santa+Fe,+NM/@35.67128,-106.003192,12z/data=!3m1!4b1!4m6!3m5!1s0x87185043e79852a9:0x8c902373fd88df40!8m2!3d35.6894307!4d-105.9381944!16zL20vMGYyNXk?entry=ttu&g_ep=EgoyMDI2MDQxNS4wIKXMDSoASAFQAw%3D%3D",
      "comment": "市中心有个大教堂",
      "lat": 35.67128,
      "lng": -106.003192
    },
    {
      "place_name": "Albuquerque",
      "google_maps_url": "https://www.google.com/maps/place/Albuquerque,+NM/@35.0823726,-106.671984,11z/data=!3m1!4b1!4m6!3m5!1s0x87220addd309837b:0xc0d3f8ceb8d9f6fd!8m2!3d35.0843859!4d-106.650422!16zL20vMGRqZDM?entry=ttu&g_ep=EgoyMDI2MDQxNS4wIKXMDSoASAFQAw%3D%3D",
      "comment": "",
      "lat": 35.0823726,
      "lng": -106.671984
    },
    {
      "place_name": "Indian Pueblo Cultural Center",
      "google_maps_url": "https://www.google.com/maps/place/Indian+Pueblo+Cultural+Center/@35.4526977,-108.7590363,7.37z/data=!3m1!5s0x8722733a03ef6b0f:0x2c175ed2d20b0ab4!4m10!1m2!2m1!1salbuquerque+cultural+center!3m6!1s0x87227339ff929717:0x3422514fbdbffc0!8m2!3d35.1104409!4d-106.6587547!15sChthbGJ1cXVlcnF1ZSBjdWx0dXJhbCBjZW50ZXJaHSIbYWxidXF1ZXJxdWUgY3VsdHVyYWwgY2VudGVykgEPY3VsdHVyYWxfY2VudGVy4AEA!16s%2Fm%2F0260dt6?entry=ttu&g_ep=EgoyMDI2MDQxNS4wIKXMDSoASAFQAw%3D%3D",
      "comment": "原住民文化中心 $6",
      "lat": 35.4526977,
      "lng": -108.7590363
    },
    {
      "place_name": "Jemez Pueblo",
      "google_maps_url": "https://www.google.com/maps/place/Jemez+Pueblo,+NM/@35.4526977,-108.7590363,7.37z/data=!4m6!3m5!1s0x87229009a02bdcf7:0x3bed54226af97381!8m2!3d35.6113233!4d-106.7247962!16zL20vMHh3NDg?entry=ttu&g_ep=EgoyMDI2MDQxNS4wIKXMDSoASAFQAw%3D%3D",
      "comment": "很热闹，有卖吃的， 热狗烤肠。",
      "lat": 35.4526977,
      "lng": -108.7590363
    }
  ],
  "BV1hnjvzCERp": [
    {
      "place_name": "Bismarck",
      "google_maps_url": "https://www.google.com/maps/place/Bismarck,+ND/@46.8163175,-100.7634965,12z/data=!3m1!4b1!4m6!3m5!1s0x52d7831257d8e963:0xccaabd12f9bbca93!8m2!3d46.8041643!4d-100.7877616!16zL20vMGZ2eXo?entry=ttu&g_ep=EgoyMDI2MDQxNS4wIKXMDSoASAFQAw%3D%3D",
      "comment": "",
      "lat": 46.8163175,
      "lng": -100.7634965
    },
    {
      "place_name": "Minot",
      "google_maps_url": "https://www.google.com/maps/place/Minot,+ND/@48.2383425,-101.2671455,12z/data=!3m1!4b1!4m6!3m5!1s0x52deb78ae5ce7f0d:0xbcc590331b734416!8m2!3d48.2329668!4d-101.2922906!16zL20vMHlzNGY?entry=ttu&g_ep=EgoyMDI2MDQxNS4wIKXMDSoASAFQAw%3D%3D",
      "comment": "",
      "lat": 48.2383425,
      "lng": -101.2671455
    },
    {
      "place_name": "Williston",
      "google_maps_url": "https://www.google.com/maps/place/Williston,+ND+58801/@48.2050295,-103.6663076,12z/data=!3m1!4b1!4m6!3m5!1s0x53215b60037038eb:0xe0fc0dfcfeb0f1e3!8m2!3d48.1469683!4d-103.6179745!16zL20vMHlzYzE?entry=ttu&g_ep=EgoyMDI2MDQxNS4wIKXMDSoASAFQAw%3D%3D",
      "comment": "",
      "lat": 48.2050295,
      "lng": -103.6663076
    },
    {
      "place_name": "University of Mary",
      "google_maps_url": "https://www.google.com/maps/place/University+of+Mary/@46.7219108,-100.7536009,17z/data=!3m1!4b1!4m6!3m5!1s0x52d79c3a02b5607d:0x738cbb4e2494f768!8m2!3d46.7219108!4d-100.7536009!16zL20vMDRwMmdx?entry=ttu&g_ep=EgoyMDI2MDQxNS4wIKXMDSoASAFQAw%3D%3D",
      "comment": "天主教大学，学费9000刀。",
      "lat": 46.7219108,
      "lng": -100.7536009
    },
    {
      "place_name": "Strasburg",
      "google_maps_url": "https://www.google.com/maps/place/Strasburg,+ND+58573/@46.134053,-100.159292,15z/data=!3m1!4b1!4m6!3m5!1s0x52d6ee7b74b44039:0xffd5d64193836a2d!8m2!3d46.133601!4d-100.1615042!16zL20vMHluem0?entry=ttu&g_ep=EgoyMDI2MDQxNS4wIKXMDSoASAFQAw%3D%3D",
      "comment": "德国裔比例最高的镇之一",
      "lat": 46.134053,
      "lng": -100.159292
    }
  ],
  "BV11HQ7BXENK": [
    {
      "place_name": "Mesilla",
      "google_maps_url": "https://www.google.com/maps/place/Mesilla,+NM/@32.2686705,-106.8056605,13z/data=!3m1!4b1!4m6!3m5!1s0x86de166e2bae7759:0xcbe6c4aa0c3ca519!8m2!3d32.2700945!4d-106.8008376!16s%2Fm%2F0208nzc?entry=ttu&g_ep=EgoyMDI2MDQxNS4wIKXMDSoASAFQAw%3D%3D",
      "comment": "",
      "lat": 32.2686705,
      "lng": -106.8056605
    },
    {
      "place_name": "Las Cruces",
      "google_maps_url": "https://www.google.com/maps/place/Las+Cruces,+NM/@32.2686705,-106.8056605,13z/data=!4m6!3m5!1s0x86de1ac745069869:0x636dd01df13f32bd!8m2!3d32.3142451!4d-106.7797529!16zL20vMHh0ejk?entry=ttu&g_ep=EgoyMDI2MDQxNS4wIKXMDSoASAFQAw%3D%3D",
      "comment": "",
      "lat": 32.2686705,
      "lng": -106.8056605
    },
    {
      "place_name": "White Sands National Park",
      "google_maps_url": "https://www.google.com/maps/place/White+Sands+National+Park/@32.7671159,-106.3098369,11z/data=!3m1!4b1!4m6!3m5!1s0x86e06303071072f3:0x36d1188767bf20c3!8m2!3d32.7872403!4d-106.3256816!16zL20vMDF3c19y?entry=ttu&g_ep=EgoyMDI2MDQxNS4wIKXMDSoASAFQAw%3D%3D",
      "comment": "",
      "lat": 32.7671159,
      "lng": -106.3098369
    },
    {
      "place_name": "Waffle & Pancake Shoppe",
      "google_maps_url": "https://www.google.com/maps/place/Waffle+%26+Pancake+Shoppe/@32.8802034,-105.9608187,17z/data=!3m1!4b1!4m6!3m5!1s0x86e0509a4a2ce8a5:0x9c7912636f5f1f62!8m2!3d32.8802034!4d-105.9608187!16s%2Fg%2F1vp6_mky?entry=ttu&g_ep=EgoyMDI2MDQxNS4wIKXMDSoASAFQAw%3D%3D",
      "comment": "早餐店",
      "lat": 32.8802034,
      "lng": -105.9608187
    },
    {
      "place_name": "PistachioLand",
      "google_maps_url": "https://www.google.com/maps/place/PistachioLand/@32.9961532,-106.0071206,14z/data=!4m10!1m2!2m1!1spistachio!3m6!1s0x86e0459420769bdf:0x2491cfc106656a30!8m2!3d32.9961532!4d-105.9896111!15sCglwaXN0YWNoaW9aCyIJcGlzdGFjaGlvkgESdG91cmlzdF9hdHRyYWN0aW9umgFEQ2k5RFFVbFJRVU52WkVOb2RIbGpSamx2VDIxSmVtVkhUVE5VVmtKNll6Qm9ZVkpYU2xkUFJHUmFVVEJuTVU1WFl4QULgAQD6AQQINxA6!16s%2Fg%2F11b6szy8xx?entry=ttu&g_ep=EgoyMDI2MDQxNS4wIKXMDSoASAFQAw%3D%3D",
      "comment": "世界上最大的开心果雕塑，很多试吃，可以游览农场。",
      "lat": 32.9961532,
      "lng": -106.0071206
    },
    {
      "place_name": "Big Chile Inn & Suites",
      "google_maps_url": "https://www.google.com/maps/place/Big+Chile+Inn+%26+Suites/@32.3121607,-106.8077258,17z/data=!3m1!4b1!4m9!3m8!1s0x86de3de50b229589:0x2e6a2c6a06a0e776!5m2!4m1!1i2!8m2!3d32.3121607!4d-106.8077258!16s%2Fg%2F1thy07h3?entry=ttu&g_ep=EgoyMDI2MDQxNS4wIKXMDSoASAFQAw%3D%3D",
      "comment": "世界上最大的辣椒雕塑。",
      "lat": 32.3121607,
      "lng": -106.8077258
    },
    {
      "place_name": "Hatch",
      "google_maps_url": "https://www.google.com/maps/place/Hatch,+NM+87937/@32.656494,-107.1963231,12z/data=!3m1!4b1!4m6!3m5!1s0x86dfac37b8e3c689:0x4529aa57946febf8!8m2!3d32.6653572!4d-107.1530744!16s%2Fm%2F0208bjg?entry=ttu&g_ep=EgoyMDI2MDQxNS4wIKXMDSoASAFQAw%3D%3D",
      "comment": "辣椒之都",
      "lat": 32.656494,
      "lng": -107.1963231
    },
    {
      "place_name": "Truth or Consequences",
      "google_maps_url": "https://www.google.com/maps/place/Truth+or+Consequences,+NM/@33.1934229,-107.255,12z/data=!3m1!4b1!4m6!3m5!1s0x86df822e517366db:0xa0256938d20946!8m2!3d33.1284047!4d-107.2528069!16zL20vMHh3bTA?entry=ttu&g_ep=EgoyMDI2MDQxNS4wIKXMDSoASAFQAw%3D%3D",
      "comment": "",
      "lat": 33.1934229,
      "lng": -107.255
    },
    {
      "place_name": "Geronimo Springs Museum",
      "google_maps_url": "https://www.google.com/maps/place/Geronimo+Springs+Museum/@33.1300049,-107.2527038,17z/data=!3m1!4b1!4m6!3m5!1s0x86df82dc820ddf4f:0x203214218db409e3!8m2!3d33.1300049!4d-107.2527038!16s%2Fg%2F1tjxg2_k?entry=ttu&g_ep=EgoyMDI2MDQxNS4wIKXMDSoASAFQAw%3D%3D",
      "comment": "Truth or Consequences博物馆，很多矿石。",
      "lat": 33.1300049,
      "lng": -107.2527038
    },
    {
      "place_name": "Pelican Spa",
      "google_maps_url": "https://www.google.com/maps/place/Pelican+Spa/@33.1300049,-107.2527038,17z/data=!4m9!3m8!1s0x86df82db7060879d:0xca0fd671c40c845d!5m2!4m1!1i2!8m2!3d33.128686!4d-107.2522165!16s%2Fg%2F1tfgk7yn?entry=ttu&g_ep=EgoyMDI2MDQxNS4wIKXMDSoASAFQAw%3D%3D",
      "comment": "温泉旅馆",
      "lat": 33.1300049,
      "lng": -107.2527038
    },
    {
      "place_name": "Elephant Butte",
      "google_maps_url": "https://www.google.com/maps/place/Elephant+Butte,+NM/@33.128686,-107.2522165,16z/data=!4m6!3m5!1s0x86df84a0787419a5:0x948e64288262427b!8m2!3d33.1770471!4d-107.2252675!16zL20vMHh3bG4?entry=ttu&g_ep=EgoyMDI2MDQxNS4wIKXMDSoASAFQAw%3D%3D",
      "comment": "新墨西哥州最大的水库",
      "lat": 33.128686,
      "lng": -107.2522165
    },
    {
      "place_name": "Santa Fe",
      "google_maps_url": "https://www.google.com/maps/place/Santa+Fe,+NM/@35.67128,-106.003192,11z/data=!3m1!4b1!4m6!3m5!1s0x87185043e79852a9:0x8c902373fd88df40!8m2!3d35.6894307!4d-105.9381944!16zL20vMGYyNXk?entry=ttu&g_ep=EgoyMDI2MDQxNS4wIKXMDSoASAFQAw%3D%3D",
      "comment": "",
      "lat": 35.67128,
      "lng": -106.003192
    }
  ],
  "BV1hmdRYREmB": [
    {
      "place_name": "Bentonville",
      "google_maps_url": "https://www.google.com/maps/place/Bentonville,+AR/@36.3478135,-94.2404009,12z/data=!3m1!4b1!4m6!3m5!1s0x87c910004ed64949:0xda808cc82425bf02!8m2!3d36.3723561!4d-94.2102141!16zL20vMHFybDM?entry=ttu&g_ep=EgoyMDI2MDQxNS4wIKXMDSoASAFQAw%3D%3D",
      "comment": "",
      "lat": 36.3478135,
      "lng": -94.2404009
    },
    {
      "place_name": "Crystal Bridges Museum of American Art",
      "google_maps_url": "https://www.google.com/maps/place/Crystal+Bridges+Museum+of+American+Art/@36.3478135,-94.2404009,12z/data=!4m6!3m5!1s0x87c91a14c433925b:0xad260359e45b143b!8m2!3d36.3818542!4d-94.2026525!16zL20vMGJiNDYx?entry=ttu&g_ep=EgoyMDI2MDQxNS4wIKXMDSoASAFQAw%3D%3D",
      "comment": "沃尔玛家族建立的很大很高质量的博物馆",
      "lat": 36.3478135,
      "lng": -94.2404009
    },
    {
      "place_name": "Walmart Home Office Campus",
      "google_maps_url": "https://www.google.com/maps/place/Walmart+Home+Office+Campus/@36.3540821,-94.2087773,13.78z/data=!4m6!3m5!1s0x87c91b006cb2cc2f:0xc0ff4e48b0503e1!8m2!3d36.3636107!4d-94.1920784!16s%2Fg%2F11ww0qxwy1?entry=ttu&g_ep=EgoyMDI2MDQxNS4wIKXMDSoASAFQAw%3D%3D",
      "comment": "沃尔玛总部",
      "lat": 36.3540821,
      "lng": -94.2087773
    },
    {
      "place_name": "Rogers",
      "google_maps_url": "https://www.google.com/maps/place/Rogers,+AR/@36.334496,-94.1656765,12z/data=!3m1!4b1!4m6!3m5!1s0x87c910d451c1567d:0xce19becf5373f4d4!8m2!3d36.3335129!4d-94.1256953!16zL20vMHFycnA?entry=ttu&g_ep=EgoyMDI2MDQxNS4wIKXMDSoASAFQAw%3D%3D",
      "comment": "",
      "lat": 36.334496,
      "lng": -94.1656765
    },
    {
      "place_name": "Daisy Airgun Museum",
      "google_maps_url": "https://www.google.com/maps/place/Daisy+Airgun+Museum/@36.3329937,-95.238208,8z/data=!4m10!1m2!2m1!1sgun+museum!3m6!1s0x87c9170586775fd3:0xa94758a4b6c10872!8m2!3d36.3329937!4d-94.1176025!15sCgpndW4gbXVzZXVtWgwiCmd1biBtdXNldW2SAQ5oaXN0b3J5X211c2V1bZoBJENoZERTVWhOTUc5blMwVkpRMEZuU1VNNWJtRk1TbmRCUlJBQuABAPoBBAgAEEU!16s%2Fg%2F1td5m6y1?entry=ttu&g_ep=EgoyMDI2MDQxNS4wIKXMDSoASAFQAw%3D%3D",
      "comment": "气枪博物馆",
      "lat": 36.3329937,
      "lng": -95.238208
    },
    {
      "place_name": "J.B. Hunt Transport Services, Inc.",
      "google_maps_url": "https://www.google.com/maps/place/J.B.+Hunt+Transport+Services,+Inc./@36.3329937,-95.238208,8z/data=!4m10!1m2!2m1!1sjb+hunt!3m6!1s0x87c91479e0ca88f5:0xa092ccb486ecafd8!8m2!3d36.2447313!4d-94.1494438!15sCgdqYiBodW50IgOIAQFaCSIHamIgaHVudJIBFnRyYW5zcG9ydGF0aW9uX3NlcnZpY2WaASNDaFpEU1VoTk1HOW5TMFZKUTBGblNVUjFkRGRUWlU5UkVBReABAPoBBQj-ARA5!16s%2Fg%2F1v8l0401?entry=ttu&g_ep=EgoyMDI2MDQxNS4wIKXMDSoASAFQAw%3D%3D",
      "comment": "J.B. Hunt总部",
      "lat": 36.3329937,
      "lng": -95.238208
    }
  ],
  "BV1eCDCB6Ewn": [
    {
      "place_name": "火灾地点",
      "google_maps_url": "https://www.google.com/maps/place/2026+Dalton+St,+Jackson,+MS+39204/@32.2898177,-90.2072003,17.04z/data=!4m15!1m8!3m7!1s0x86282b7f90741b21:0x713cde441f038a0!2sJackson,+MS!3b1!8m2!3d32.2981392!4d-90.18065!16zL20vMDQzeWo!3m5!1s0x862833bfe2ac5797:0x88c38ee7804580d4!8m2!3d32.2886409!4d-90.2056845!16s%2Fg%2F11jzybzns1?entry=ttu&g_ep=EgoyMDI2MDQxNS4wIKXMDSoASAFQAw%3D%3D",
      "comment": "",
      "lat": 32.2898177,
      "lng": -90.2072003
    },
    {
      "place_name": "黑人区餐厅",
      "google_maps_url": "https://www.google.com/maps/place/Johnny+T's+Bistro+%26+Blues/@32.3051479,-90.1885311,17.71z/data=!4m15!1m8!3m7!1s0x86282b7f90741b21:0x713cde441f038a0!2sJackson,+MS!3b1!8m2!3d32.2981392!4d-90.18065!16zL20vMDQzeWo!3m5!1s0x862833ab69807c11:0xe061bf4a7c966422!8m2!3d32.3060107!4d-90.1882615!16s%2Fg%2F11bwgjnpv5?entry=ttu&g_ep=EgoyMDI2MDQxNS4wIKXMDSoASAFQAw%3D%3D",
      "comment": "",
      "lat": 32.3051479,
      "lng": -90.1885311
    },
    {
      "place_name": "州府大厦",
      "google_maps_url": "https://www.google.com/maps/place/Mississippi+State+Capitol/@32.3095708,-90.182563,14.71z/data=!4m15!1m8!3m7!1s0x86282b7f90741b21:0x713cde441f038a0!2sJackson,+MS!3b1!8m2!3d32.2981392!4d-90.18065!16zL20vMDQzeWo!3m5!1s0x8628325409b10bb9:0x39edf15fa023d86c!8m2!3d32.30348!4d-90.1821462!16s%2Fg%2F1tlw9fkb?entry=ttu&g_ep=EgoyMDI2MDQxNS4wIKXMDSoASAFQAw%3D%3D",
      "comment": "",
      "lat": 32.3095708,
      "lng": -90.182563
    },
    {
      "place_name": "火车站/交通枢纽",
      "google_maps_url": "https://www.google.com/maps/place/Jackson/@32.3001878,-90.1912086,17.33z/data=!4m15!1m8!3m7!1s0x86282b7f90741b21:0x713cde441f038a0!2sJackson,+MS!3b1!8m2!3d32.2981392!4d-90.18065!16zL20vMDQzeWo!3m5!1s0x862833ade81cced9:0xfcf52a9758c4efce!8m2!3d32.3009936!4d-90.1909909!16s%2Fm%2F02pzvdc?entry=ttu&g_ep=EgoyMDI2MDQxNS4wIKXMDSoASAFQAw%3D%3D",
      "comment": "",
      "lat": 32.3001878,
      "lng": -90.1912086
    },
    {
      "place_name": "挂逼旅馆",
      "google_maps_url": "https://www.google.com/maps/place/OYO+Townhouse+Jackson%2FRidgeland/@32.3626852,-90.190756,13.21z/data=!4m13!1m2!2m1!1soyo+inn!3m9!1s0x8629d29de8d3cad1:0xee1545c3a7168f75!5m2!4m1!1i2!8m2!3d32.3851898!4d-90.1486368!15sCgdveW8gaW5uIgOIAQGSAQVob3RlbOABAA!16s%2Fg%2F11ss5mb6t1?entry=ttu&g_ep=EgoyMDI2MDQxNS4wIKXMDSoASAFQAw%3D%3D",
      "comment": "",
      "lat": 32.3626852,
      "lng": -90.190756
    }
  ],
  "BV17bSdByEYR": [
    {
      "place_name": "西北学院 大学",
      "google_maps_url": "https://www.google.com/maps/place/Northwestern+College/@42.9979673,-96.0607487,17z/data=!3m1!4b1!4m6!3m5!1s0x878db55ceca084d7:0x42543520cb2cfda2!8m2!3d42.9979634!4d-96.0581738!16zL20vMDEzMXd5?entry=ttu&g_ep=EgoyMDI2MDQxNS4wIKXMDSoASAFQAw%3D%3D",
      "comment": "",
      "lat": 42.9979673,
      "lng": -96.0607487
    }
  ],
  "BV1NNDAB5EWa": [
    {
      "place_name": "像成龙的大哥的中餐厅",
      "google_maps_url": "https://www.google.com/maps/place/China+House+Cafe/@43.827217,-94.4458332,15z/data=!4m15!1m8!3m7!1s0x87f487ad9fe97dc1:0x844826ccb06e85e4!2sTruman,+MN+56088!3b1!8m2!3d43.8277341!4d-94.4371904!16zL20vMHc2azA!3m5!1s0x87f4878424a3c977:0x8db182cea3d6016c!8m2!3d43.8274721!4d-94.4367396!16s%2Fg%2F11g0gr_550?entry=ttu&g_ep=EgoyMDI2MDQxNS4wIKXMDSoASAFQAw%3D%3D",
      "comment": "",
      "lat": 43.827217,
      "lng": -94.4458332,
      "contributor": "小霸王"
    },
    {
      "place_name": "台湾大爷的中餐厅",
      "google_maps_url": "https://www.google.com/maps/place/China+Restaurant/@43.8991582,-94.599563,11.17z/data=!4m18!1m9!3m8!1s0x87f4878424a3c977:0x8db182cea3d6016c!2sChina+House+Cafe!8m2!3d43.8274721!4d-94.4367396!9m1!1b1!16s%2Fg%2F11g0gr_550!3m7!1s0x87f493114b2e0bdb:0x3dba75b07115ad54!8m2!3d43.9790106!4d-94.6187376!9m1!1b1!16s%2Fg%2F1tr7dbxr?entry=ttu&g_ep=EgoyMDI2MDQxNS4wIKXMDSoASAFQAw%3D%3D",
      "comment": "",
      "lat": 43.8991582,
      "lng": -94.599563,
      "contributor": "小霸王"
    }
  ],
  "BV1SNXkBeE61": [
    {
      "place_name": "马克思火车站",
      "google_maps_url": "https://www.google.com/maps/place/Marks/@34.2517263,-90.2802012,15z/data=!4m15!1m8!3m7!1s0x862ab8c101a37459:0x2d7338330abb34d4!2sMarks,+MS+38646!3b1!8m2!3d34.2565!4d-90.2720375!16zL20vMHdyZ3g!3m5!1s0x862ab8c4a142cc2f:0x226c44113a9480b5!8m2!3d34.258227!4d-90.272342!16s%2Fg%2F11g0g4qsl7?entry=ttu&g_ep=EgoyMDI2MDQxNS4wIKXMDSoASAFQAw%3D%3D",
      "comment": "",
      "lat": 34.2517263,
      "lng": -90.2802012,
      "contributor": "小霸王"
    },
    {
      "place_name": "吃早饭的地方",
      "google_maps_url": "https://www.google.com/maps/place/Country+kitchen+450+Martin+Luther+king/@34.2517263,-90.2802012,15z/data=!4m15!1m8!3m7!1s0x862ab8c101a37459:0x2d7338330abb34d4!2sMarks,+MS+38646!3b1!8m2!3d34.2565!4d-90.2720375!16zL20vMHdyZ3g!3m5!1s0x862ab9cfbb811f9f:0x6f856916433d6b62!8m2!3d34.2550965!4d-90.2739991!16s%2Fg%2F11t2lb3z3r?entry=ttu&g_ep=EgoyMDI2MDQxNS4wIKXMDSoASAFQAw%3D%3D",
      "comment": "",
      "lat": 34.2517263,
      "lng": -90.2802012,
      "contributor": "小霸王"
    },
    {
      "place_name": "money村",
      "google_maps_url": "https://www.google.com/maps/place/Emmett+Till+Historical+Marker/@33.6511902,-90.2132319,16.92z/data=!4m15!1m8!3m7!1s0x862ab8c101a37459:0x2d7338330abb34d4!2sMarks,+MS+38646!3b1!8m2!3d34.2565!4d-90.2720375!16zL20vMHdyZ3g!3m5!1s0x862a65c6216d6923:0x50f19fa03dfccf3b!8m2!3d33.6523205!4d-90.2087547!16s%2Fg%2F11c6w0xjjj?entry=ttu&g_ep=EgoyMDI2MDQxNS4wIKXMDSoASAFQAw%3D%3D",
      "comment": "",
      "lat": 33.6511902,
      "lng": -90.2132319,
      "contributor": "小霸王"
    },
    {
      "place_name": "吃午饭的地方",
      "google_maps_url": "https://www.google.com/maps/place/Jeems+Diner/@33.5166202,-90.1861192,16.54z/data=!4m15!1m8!3m7!1s0x862ab8c101a37459:0x2d7338330abb34d4!2sMarks,+MS+38646!3b1!8m2!3d34.2565!4d-90.2720375!16zL20vMHdyZ3g!3m5!1s0x862a6dd1ef1826db:0xe6c32b3bbcc684a6!8m2!3d33.5176659!4d-90.1815338!16s%2Fg%2F1tk63h74?entry=ttu&g_ep=EgoyMDI2MDQxNS4wIKXMDSoASAFQAw%3D%3D",
      "comment": "",
      "lat": 33.5166202,
      "lng": -90.1861192,
      "contributor": "小霸王"
    },
    {
      "place_name": "黑人大学",
      "google_maps_url": "https://www.google.com/maps/place/Mississippi+Valley+State+University,+MS+38941/@33.4584847,-90.4457416,12z/data=!4m15!1m8!3m7!1s0x862ab8c101a37459:0x2d7338330abb34d4!2sMarks,+MS+38646!3b1!8m2!3d34.2565!4d-90.2720375!16zL20vMHdyZ3g!3m5!1s0x862a41712aab7d47:0x32e4d28a050b938d!8m2!3d33.5191296!4d-90.3442449!16s%2Fm%2F0zrp7g3?entry=ttu&g_ep=EgoyMDI2MDQxNS4wIKXMDSoASAFQAw%3D%3D",
      "comment": "",
      "lat": 33.4584847,
      "lng": -90.4457416,
      "contributor": "小霸王"
    },
    {
      "place_name": "华人杂货店",
      "google_maps_url": "https://www.google.com/maps/place/L+%26+T+Food+Market/@33.4959641,-90.3568947,14z/data=!4m15!1m8!3m7!1s0x862ab8c101a37459:0x2d7338330abb34d4!2sMarks,+MS+38646!3b1!8m2!3d34.2565!4d-90.2720375!16zL20vMHdyZ3g!3m5!1s0x862a41b818841f23:0x1169c7573deba339!8m2!3d33.494489!4d-90.319532!16s%2Fg%2F1w0r08cy?entry=ttu&g_ep=EgoyMDI2MDQxNS4wIKXMDSoASAFQAw%3D%3D",
      "comment": "",
      "lat": 33.4959641,
      "lng": -90.3568947,
      "contributor": "小霸王"
    }
  ],
  "BV11FXoBPEEU": [
    {
      "place_name": "南达大学",
      "google_maps_url": "https://www.google.com/maps/place/University+of+South+Dakota/@38.4353901,-112.269393,6z/data=!4m10!1m2!2m1!1su+of+sd!3m6!1s0x878e4f8961698e2b:0x7c8c9573e80c69ac!8m2!3d42.7883015!4d-96.9253381!15sCgd1IG9mIHNkkgERcHVibGljX3VuaXZlcnNpdHngAQA!16zL20vMDFuZ3ox?entry=ttu&g_ep=EgoyMDI2MDQxNS4wIKXMDSoASAFQAw%3D%3D",
      "comment": "",
      "lat": 38.4353901,
      "lng": -112.269393,
      "contributor": "小霸王"
    }
  ],
  "BV1eXXTByECp": [
    {
      "place_name": "黑人大食堂",
      "google_maps_url": "https://www.google.com/maps/place/Stein's/@35.0912536,-90.0533313,14.21z/data=!4m6!3m5!1s0x87d57c57aa7aa20b:0x8f806536c3c76ec4!8m2!3d35.0856707!4d-90.0442209!16s%2Fg%2F1thqh8zl?entry=ttu&g_ep=EgoyMDI2MDQxNS4wIKXMDSoASAFQAw%3D%3D",
      "comment": "",
      "lat": 35.0912536,
      "lng": -90.0533313,
      "contributor": "小霸王"
    },
    {
      "place_name": "高端黑人大食堂",
      "google_maps_url": "https://www.google.com/maps/place/Fenominal+Food/@35.1049902,-90.0420393,14.21z/data=!4m6!3m5!1s0x87d57d00401557a1:0x6ba793cb50b179ac!8m2!3d35.1082438!4d-90.0217718!16s%2Fg%2F11w28ccq7x?entry=ttu&g_ep=EgoyMDI2MDQxNS4wIKXMDSoASAFQAw%3D%3D",
      "comment": "",
      "lat": 35.1049902,
      "lng": -90.0420393,
      "contributor": "小霸王"
    },
    {
      "place_name": "洗衣店",
      "google_maps_url": "https://www.google.com/maps/place/Klondike+Food+%26+Deli/@35.1588611,-90.0177072,20.62z/data=!4m6!3m5!1s0x87d57e381220c0e7:0xfae7e7dfa3d1cb73!8m2!3d35.1588194!4d-90.0178182!16s%2Fg%2F11bxc63r9t?entry=ttu&g_ep=EgoyMDI2MDQxNS4wIKXMDSoASAFQAw%3D%3D",
      "comment": "",
      "lat": 35.1588611,
      "lng": -90.0177072,
      "contributor": "小霸王"
    },
    {
      "place_name": "金字塔",
      "google_maps_url": "https://www.google.com/maps/place/Bass+Pro+Shops+at+the+Pyramid/@35.1605089,-90.0591426,14.21z/data=!3m1!5s0x87d57ee9461a3fa5:0xde0c202a15bce396!4m6!3m5!1s0x87d57fb0a736a201:0xd12514b55e244afc!8m2!3d35.155113!4d-90.052262!16s%2Fg%2F11qgyjtbsq?entry=ttu&g_ep=EgoyMDI2MDQxNS4wIKXMDSoASAFQAw%3D%3D",
      "comment": "",
      "lat": 35.1605089,
      "lng": -90.0591426,
      "contributor": "小霸王"
    }
  ],
  "BV1oTPpzDEw2": [
    {
      "place_name": "黑人饭中餐厅",
      "google_maps_url": "https://www.google.com/maps/place/Pearl+88/@34.1958454,-90.5607019,17z/data=!3m1!4b1!4m6!3m5!1s0x862ade561a593a1d:0x1c7f8843cf126879!8m2!3d34.195841!4d-90.558127!16s%2Fg%2F1tjt2975?entry=ttu&g_ep=EgoyMDI2MDQxNS4wIKXMDSoASAFQAw%3D%3D",
      "comment": "",
      "lat": 34.1958454,
      "lng": -90.5607019,
      "contributor": "小霸王"
    },
    {
      "place_name": "蓝调小馆（要门票）",
      "google_maps_url": "https://www.google.com/maps/place/Red's/@34.1955655,-90.5811749,14.29z/data=!4m14!1m7!3m6!1s0x862ade561a593a1d:0x1c7f8843cf126879!2sPearl+88!8m2!3d34.195841!4d-90.558127!16s%2Fg%2F1tjt2975!3m5!1s0x862adf0840220081:0xfec120c525df7308!8m2!3d34.1977322!4d-90.574205!16s%2Fg%2F11b7l1mzrp?entry=ttu&g_ep=EgoyMDI2MDQxNS4wIKXMDSoASAFQAw%3D%3D",
      "comment": "",
      "lat": 34.1955655,
      "lng": -90.5811749,
      "contributor": "小霸王"
    }
  ],
  "BV17xf1BuEDL": [
    {
      "place_name": "大爷的烧烤店",
      "google_maps_url": "https://www.google.com/maps/place/Delta+Que+%26+Brew/@34.5299441,-90.6001821,15.62z/data=!4m15!1m8!3m7!1s0x87d4d511553cc865:0x78181aff2b901de0!2sHelena-West+Helena,+AR!3b1!8m2!3d34.5291892!4d-90.5911996!16zL20vMDlremRj!3m5!1s0x87d52b73a7ded1e7:0x97f471ea1c3e28f3!8m2!3d34.5246614!4d-90.5863618!16s%2Fg%2F11s7xppdyl?entry=ttu&g_ep=EgoyMDI2MDQxNS4wIKXMDSoASAFQAw%3D%3D",
      "comment": "",
      "lat": 34.5299441,
      "lng": -90.6001821,
      "contributor": "小霸王"
    },
    {
      "place_name": "很破的海伦娜",
      "google_maps_url": "https://www.google.com/maps/place/Kelly+Courtyard/@34.5259413,-90.5870353,18.54z/data=!4m15!1m8!3m7!1s0x87d4d511553cc865:0x78181aff2b901de0!2sHelena-West+Helena,+AR!3b1!8m2!3d34.5291892!4d-90.5911996!16zL20vMDlremRj!3m5!1s0x87d52abe89d6aaab:0x230838169b630a6f!8m2!3d34.5264905!4d-90.5865109!16s%2Fg%2F11xt6m_bnw?entry=ttu&g_ep=EgoyMDI2MDQxNS4wIKXMDSoASAFQAw%3D%3D",
      "comment": "",
      "lat": 34.5259413,
      "lng": -90.5870353,
      "contributor": "小霸王"
    },
    {
      "place_name": "马维尔",
      "google_maps_url": "https://www.google.com/maps/place/Marvell,+AR+72366/@34.5261751,-90.926425,12.37z/data=!4m6!3m5!1s0x87d4b58525cf31c9:0x632abea34d035206!8m2!3d34.5569568!4d-90.9125471!16zL20vMHF3OTI?entry=ttu&g_ep=EgoyMDI2MDQxNS4wIKXMDSoASAFQAw%3D%3D",
      "comment": "",
      "lat": 34.5261751,
      "lng": -90.926425,
      "contributor": "小霸王"
    },
    {
      "place_name": "伊莱恩",
      "google_maps_url": "https://www.google.com/maps/place/Elaine,+AR+72333/@34.3071908,-90.8580464,16z/data=!3m1!4b1!4m6!3m5!1s0x862b38767fd7968d:0x15d5367c875e2a50!8m2!3d34.3080442!4d-90.8531622!16zL20vMHF3N3E?entry=ttu&g_ep=EgoyMDI2MDQxNS4wIKXMDSoASAFQAw%3D%3D",
      "comment": "",
      "lat": 34.3071908,
      "lng": -90.8580464,
      "contributor": "小霸王"
    }
  ]
}
